$GPGSV,4,1,14,22,73,245,21,18,61,143,,06,55,266,24,21,42,082,17*7E
$GPGSV,4,2,14,03,42,246,25,14,35,358,31,26,24,137,,19,22,224,15*78
$GPGSV,4,3,14,09,12,096,17,16,08,303,18,27,08,124,,15,07,142,*70
$GPGSV,4,4,14,24,04,072,,43,,,*4C
$GPRMC,104422.000,A,3746.9684,S,14516.5474,E,1.73,158.16,250409,,,A*76
$GPGSV,4,1,14,22,73,245,23,18,61,143,,06,55,266,24,21,42,082,17*7C
$GPGSV,4,2,14,03,42,246,24,14,35,358,31,26,24,137,,19,22,224,15*79
$GPGSV,4,3,14,09,12,096,17,16,08,303,19,27,08,124,,15,07,142,*71
$GPGSV,4,4,14,24,04,072,,43,,,*4C
$GPRMC,104422.500,A,3746.9682,S,14516.5472,E,1.73,158.16,250409,,,A*73
$GPGSV,4,1,14,22,73,245,24,18,61,143,,06,55,266,23,21,42,082,17*7C
$GPGSV,4,2,14,03,42,246,23,14,35,358,31,26,24,137,,19,22,224,15*7E
$GPGSV,4,3,14,09,12,096,17,16,08,303,20,27,08,124,,15,07,142,*7B
$GPGSV,4,4,14,24,04,072,,45,,,*4A
$GPRMC,104423.000,A,3746.9682,S,14516.5470,E,1.73,158.16,250409,,,A*75
$GPGSV,4,1,14,22,73,245,23,18,61,143,,06,55,266,22,21,42,082,18*75
$GPGSV,4,2,14,03,42,246,22,14,35,358,31,26,24,137,,19,22,224,16*7C
$GPGSV,4,3,14,09,12,096,17,16,08,303,22,27,08,124,,15,07,142,*79
$GPGSV,4,4,14,24,04,072,,45,,,*4A
$GPRMC,104423.500,A,3746.9683,S,14516.5471,E,1.73,158.16,250409,,,A*70
$GPGSV,4,1,14,22,73,245,16,18,61,143,,06,55,266,22,21,42,082,18*73
$GPGSV,4,2,14,03,42,246,21,14,35,358,31,26,24,137,,19,22,224,16*7F
$GPGSV,4,3,14,09,12,096,17,16,08,303,23,27,08,124,,15,07,142,*78
$GPGSV,4,4,14,24,04,072,,45,,,*4A
$GPRMC,104424.000,A,3746.9683,S,14516.5472,E,1.73,158.16,250409,,,A*71
$GPGSV,4,1,14,22,73,245,16,18,61,143,,06,55,266,21,21,42,082,17*7F
$GPGSV,4,2,14,03,42,246,22,14,35,358,31,26,24,137,,19,22,224,16*7C
$GPGSV,4,3,14,09,12,096,16,16,08,303,22,27,08,124,,15,07,142,*78
$GPGSV,4,4,14,24,04,072,,46,,,*49
$GPRMC,104424.500,A,3746.9684,S,14516.5472,E,1.73,158.16,250409,,,A*73
$GPGSV,4,1,14,22,73,245,16,18,61,143,,06,55,266,21,21,42,082,16*7E
$GPGSV,4,2,14,03,42,246,22,14,35,358,31,26,24,137,,19,22,224,16*7C
$GPGSV,4,3,14,09,12,096,15,16,08,303,25,27,08,124,,15,07,142,*7C
$GPGSV,4,4,14,24,04,072,,46,,,*49
$GPRMC,104425.000,A,3746.9686,S,14516.5472,E,1.74,158.16,250409,,,A*72
$GPGSV,4,1,14,22,73,245,18,18,61,143,,06,55,266,21,21,42,082,16*70
$GPGSV,4,2,14,03,42,246,22,14,35,358,31,26,24,137,,19,22,224,16*7C
$GPGSV,4,3,14,09,12,096,14,16,08,303,24,27,08,124,,15,07,142,*7C
$GPGSV,4,4,14,24,04,072,,49,,,*46
$GPRMC,104425.500,A,3746.9686,S,14516.5471,E,1.74,158.16,250409,,,A*74
$GPGSV,4,1,14,22,73,245,18,18,61,143,,06,55,266,20,21,42,082,15*72
$GPGSV,4,2,14,03,42,246,21,14,35,358,31,26,24,137,,19,22,224,15*7C
$GPGSV,4,3,14,09,12,096,15,16,08,303,24,27,08,124,,15,07,142,*7D
$GPGSV,4,4,14,24,04,072,,49,,,*46
$GPRMC,104426.000,A,3746.9687,S,14516.5470,E,1.74,158.16,250409,,,A*72
$GPGSV,4,1,14,22,73,245,18,18,61,143,,06,55,266,19,21,42,082,15*78
$GPGSV,4,2,14,03,42,246,20,14,35,358,31,26,24,137,,19,22,224,15*7D
$GPGSV,4,3,14,09,12,096,16,16,08,303,24,27,08,124,,15,07,142,*7E
$GPGSV,4,4,14,24,04,072,,44,00,276,*78
$GPRMC,104426.500,A,3746.9687,S,14516.5470,E,1.74,158.16,250409,,,A*77
$GPGSV,4,1,14,22,73,245,18,18,61,143,,06,55,266,18,21,42,082,15*79
$GPGSV,4,2,14,03,42,246,20,14,35,358,31,26,24,137,,19,22,224,16*7E
$GPGSV,4,3,14,09,12,096,16,16,08,303,23,27,08,124,,15,07,142,*79
$GPGSV,4,4,14,24,04,072,,44,00,276,*78
$GPRMC,104427.000,A,3746.9688,S,14516.5470,E,1.74,158.16,250409,,,A*7C
$GPGSV,4,1,14,22,73,245,18,18,61,143,,06,55,266,18,21,42,082,15*79
$GPGSV,4,2,14,03,42,246,20,14,35,358,31,26,24,137,,19,22,224,16*7E
$GPGSV,4,3,14,09,12,096,15,16,08,303,22,27,08,124,,15,07,142,*7B
$GPGSV,4,4,14,24,04,072,,44,00,276,*78
$GPRMC,104427.500,A,3746.9689,S,14516.5470,E,1.74,158.16,250409,,,A*78
$GPGSV,4,1,14,22,73,245,17,18,61,143,16,06,55,266,18,21,42,082,15*71
$GPGSV,4,2,14,03,42,246,18,14,35,358,31,26,24,137,,19,22,224,16*75
$GPGSV,4,3,14,09,12,096,15,16,08,303,22,27,08,124,,15,07,142,*7B
$GPGSV,4,4,14,24,04,072,,48,-2,084,*64
$GPRMC,104428.000,A,3746.9690,S,14516.5471,E,1.74,158.16,250409,,,A*7B
$GPGSV,4,1,14,22,73,245,16,18,61,143,16,06,55,266,18,21,42,082,16*73
$GPGSV,4,2,14,03,42,247,17,14,35,358,30,26,24,137,,19,22,224,16*7A
$GPGSV,4,3,14,09,12,096,16,16,08,303,20,27,08,124,,15,07,142,*7A
$GPGSV,4,4,14,24,04,072,,48,-2,084,*64
$GPRMC,104428.500,A,3746.9690,S,14516.5470,E,1.74,158.16,250409,,,A*7F
$GPGSV,4,1,14,22,73,245,16,18,61,143,16,06,55,266,18,21,42,082,16*73
$GPGSV,4,2,14,03,42,247,18,14,35,358,29,26,24,137,,19,22,224,16*7D
$GPGSV,4,3,14,09,12,096,16,16,08,303,19,27,08,124,,15,07,142,*70
$GPGSV,4,4,14,24,04,072,,51,,,*4F
$GPRMC,104429.000,A,3746.9690,S,14516.5470,E,1.74,158.16,250409,,,A*7B
$GPGSV,4,1,14,22,73,245,15,18,61,143,17,06,55,266,18,21,42,082,16*71
$GPGSV,4,2,14,03,42,247,19,14,35,358,29,26,24,137,,19,22,224,15*7F
$GPGSV,4,3,14,09,12,096,16,16,08,303,19,27,08,124,,15,07,142,*70
$GPGSV,4,4,14,24,04,072,,51,,,*4F
$GPRMC,104429.500,A,3746.9690,S,14516.5469,E,1.74,158.16,250409,,,A*76
$GPGSV,4,1,14,22,73,245,15,18,61,143,17,06,55,266,18,21,42,082,16*71
$GPGSV,4,2,14,03,42,247,20,14,35,358,29,26,24,137,,19,22,224,15*75
$GPGSV,4,3,14,09,12,096,17,16,08,303,19,27,08,124,,15,07,142,*71
$GPGSV,4,4,14,24,04,072,,39,,,*41
$GPRMC,104430.000,A,3746.9692,S,14516.5467,E,1.74,158.16,250409,,,A*77
$GPGSV,4,1,14,22,73,245,15,18,61,143,17,06,55,266,18,21,42,082,16*71
$GPGSV,4,2,14,03,42,247,20,14,35,358,29,26,24,137,,19,22,224,15*75
$GPGSV,4,3,14,09,12,096,17,16,08,303,20,27,08,124,,15,07,142,*7B
$GPGSV,4,4,14,24,04,072,,39,,,*41
$GPRMC,104430.500,A,3746.9693,S,14516.5465,E,1.74,158.16,250409,,,A*71
$GPGSV,4,1,14,22,73,245,15,18,61,143,17,06,55,266,18,21,42,082,16*71
$GPGSV,4,2,14,03,42,247,20,14,35,358,29,26,24,137,,19,22,224,15*75
$GPGSV,4,3,14,09,12,096,17,16,08,303,21,27,08,124,,15,07,142,*7A
$GPGSV,4,4,14,24,04,072,,37,,,*4F
$GPRMC,104431.000,A,3746.9693,S,14516.5463,E,1.74,158.16,250409,,,A*73
$GPGSV,4,1,14,22,73,245,15,18,61,143,17,06,55,266,18,21,42,082,16*71
$GPGSV,4,2,14,03,42,247,20,14,35,358,29,26,24,137,,19,22,224,15*75
$GPGSV,4,3,14,09,12,096,17,16,08,303,21,27,08,124,,15,07,142,*7A
$GPGSV,4,4,14,24,04,072,,37,,,*4F
$GPRMC,104431.500,A,3746.9694,S,14516.5460,E,1.74,158.16,250409,,,A*72
$GPGSV,4,1,14,22,73,245,16,18,61,143,17,06,55,266,19,21,42,082,16*73
$GPGSV,4,2,14,03,42,247,20,14,35,358,30,26,24,137,,19,22,224,15*7D
$GPGSV,4,3,14,09,12,096,17,16,08,303,21,27,08,124,,15,07,142,*7A
$GPGSV,4,4,14,24,04,072,,33,,,*4B
$GPRMC,104432.000,A,3746.9696,S,14516.5457,E,1.74,158.16,250409,,,A*72
$GPGSV,4,1,14,22,73,245,17,18,61,143,17,06,55,266,19,21,42,082,16*72
$GPGSV,4,2,14,03,42,247,19,14,35,358,30,26,24,137,,19,22,224,15*77
$GPGSV,4,3,14,09,12,096,17,16,08,303,21,27,08,124,,15,07,142,*7A
$GPGSV,4,4,14,24,04,072,,33,,,*4B
$GPRMC,104432.500,A,3746.9693,S,14516.5455,E,1.74,158.16,250409,,,A*70
$GPGSV,4,1,14,22,73,245,18,18,61,143,16,06,55,266,19,50,46,359,*7C
$GPGSV,4,2,14,21,42,082,16,03,42,247,18,14,35,358,30,26,24,137,*76
$GPGSV,4,3,14,19,22,224,15,09,12,096,17,16,08,303,22,27,08,124,*75
$GPGSV,4,4,14,15,07,142,,24,04,072,*7F
$GPRMC,104433.000,A,3746.9691,S,14516.5453,E,1.74,158.16,250409,,,A*70
$GPGSV,4,1,14,22,73,245,19,18,61,143,15,06,55,266,19,50,46,359,*7E
$GPGSV,4,2,14,21,42,082,15,03,42,247,19,14,35,358,30,26,24,137,*74
$GPGSV,4,3,14,19,22,224,15,09,12,096,17,16,08,303,22,27,08,124,*75
$GPGSV,4,4,14,15,07,142,,24,04,072,*7F
$GPRMC,104433.500,A,3746.9691,S,14516.5452,E,1.73,158.16,250409,,,A*73
$GPGSV,4,1,14,22,73,245,19,18,61,143,15,06,55,266,19,50,46,359,*7E
$GPGSV,4,2,14,21,42,082,15,03,42,247,19,14,35,358,30,26,24,137,*74
$GPGSV,4,3,14,19,22,224,15,09,12,096,17,16,08,303,23,27,08,124,*74
$GPGSV,4,4,14,15,07,142,,24,04,072,*7F
$GPRMC,104434.000,A,3746.9691,S,14516.5451,E,1.73,158.16,250409,,,A*72
$GPGSV,4,1,14,22,73,245,19,18,61,143,15,06,55,266,19,42,45,351,*76
$GPGSV,4,2,14,21,42,082,15,03,42,247,20,14,35,358,30,26,24,137,*7E
$GPGSV,4,3,14,19,22,224,15,09,12,096,17,16,08,303,24,27,08,124,*73
$GPGSV,4,4,14,15,07,142,,24,04,072,*7F
$GPRMC,104434.500,A,3746.9691,S,14516.5450,E,1.73,158.16,250409,,,A*76
$GPGSV,4,1,14,22,73,245,18,18,61,143,15,06,55,266,20,42,45,351,*7D
$GPGSV,4,2,14,21,42,082,14,03,42,247,19,14,35,358,30,26,24,137,*75
$GPGSV,4,3,14,19,22,224,15,09,12,096,17,16,08,304,24,27,08,124,*74
$GPGSV,4,4,14,15,07,142,,24,04,072,*7F
$GPRMC,104435.000,A,3746.9691,S,14516.5448,E,1.73,158.16,250409,,,A*7B
$GPGSV,4,1,14,22,73,245,18,18,61,143,15,06,55,266,19,42,45,351,*77
$GPGSV,4,2,14,21,42,082,14,03,42,247,19,14,35,358,30,26,24,137,*75
$GPGSV,4,3,14,19,22,224,15,09,12,096,17,16,08,304,24,27,08,124,*74
$GPGSV,4,4,14,15,07,142,,24,04,072,*7F
$GPRMC,104435.500,A,3746.9689,S,14516.5447,E,1.73,158.16,250409,,,A*78
$GPGSV,4,1,14,22,73,245,18,18,61,142,15,06,55,266,19,21,42,082,15*7D
$GPGSV,4,2,14,03,42,247,19,14,35,358,30,47,34,046,,26,24,137,*79
$GPGSV,4,3,14,19,22,224,15,09,12,096,17,16,08,304,24,27,08,124,*74
$GPGSV,4,4,14,15,07,142,,24,04,072,*7F
$GPRMC,104436.000,A,3746.9688,S,14516.5446,E,1.73,158.16,250409,,,A*7E
$GPGSV,4,1,14,22,73,245,17,18,61,142,15,06,55,266,18,21,42,082,15*73
$GPGSV,4,2,14,03,42,247,20,14,35,358,29,47,34,046,,26,24,137,*7B
$GPGSV,4,3,14,19,22,224,15,09,12,096,17,16,08,304,25,27,08,124,*75
$GPGSV,4,4,14,15,07,142,,24,04,072,*7F
$GPRMC,104436.500,A,3746.9687,S,14516.5444,E,1.73,158.16,250409,,,A*76
$GPGSV,4,1,14,22,73,245,17,18,61,142,15,06,55,266,18,21,42,082,15*73
$GPGSV,4,2,14,03,42,247,21,14,35,358,28,47,34,046,,26,24,137,*7B
$GPGSV,4,3,14,19,22,224,15,09,12,096,17,16,08,304,25,27,08,124,*75
$GPGSV,4,4,14,15,07,142,,24,04,072,*7F
$GPRMC,104437.000,A,3746.9685,S,14516.5442,E,1.73,158.16,250409,,,A*76
$GPGSV,4,1,14,22,73,245,18,18,61,142,15,06,55,266,18,21,42,082,16*7F
$GPGSV,4,2,14,03,42,247,21,14,35,358,28,47,34,046,,26,24,137,*7B
$GPGSV,4,3,14,19,22,224,16,09,12,096,17,16,08,304,24,27,08,124,*77
$GPGSV,4,4,14,15,07,142,,24,04,072,*7F
$GPRMC,104437.500,A,3746.9685,S,14516.5443,E,1.73,158.16,250409,,,A*72
$GPGSV,4,1,14,22,73,245,18,18,61,142,15,06,55,266,18,21,42,082,16*7F
$GPGSV,4,2,14,03,42,247,19,14,35,358,28,26,24,137,,19,22,224,16*7D
$GPGSV,4,3,14,09,12,096,17,16,08,304,24,27,08,124,,15,07,142,*78
$GPGSV,4,4,14,35,05,079,,24,04,072,*76
$GPRMC,104438.000,A,3746.9685,S,14516.5443,E,1.73,158.16,250409,,,A*78
$GPGSV,4,1,14,22,73,245,18,18,61,142,15,06,55,266,18,21,42,082,17*7E
$GPGSV,4,2,14,03,42,247,18,14,35,358,28,26,24,137,,19,22,224,15*7F
$GPGSV,4,3,14,09,12,096,17,16,08,304,23,27,08,124,,15,07,142,*7F
$GPGSV,4,4,14,35,05,079,,24,04,072,*76
$GPRMC,104438.500,A,3746.9684,S,14516.5444,E,1.73,158.16,250409,,,A*7B
$GPGSV,4,1,14,22,73,245,18,18,61,142,15,06,55,266,18,21,42,082,17*7E
$GPGSV,4,2,14,03,42,247,18,14,35,358,28,26,24,137,,19,22,224,15*7F
$GPGSV,4,3,14,09,12,096,17,16,08,304,22,27,08,124,,15,07,142,*7E
$GPGSV,4,4,14,35,05,079,,24,04,072,*76
$GPRMC,104439.000,A,3746.9684,S,14516.5444,E,1.73,158.16,250409,,,A*7F
$GPGSV,4,1,14,22,73,245,18,18,61,142,16,06,55,266,18,50,46,359,*7C
$GPGSV,4,2,14,21,42,082,17,03,42,247,18,14,35,358,29,26,24,137,*7F
$GPGSV,4,3,14,19,22,224,15,09,12,096,17,16,08,304,22,27,08,124,*72
$GPGSV,4,4,14,15,07,142,,24,04,072,*7F
$GPRMC,104439.500,A,3746.9683,S,14516.5444,E,1.73,158.16,250409,,,A*7D
$GPGSV,4,1,14,22,73,245,18,18,61,142,16,06,55,266,18,50,46,359,*7C
$GPGSV,4,2,14,21,42,082,17,03,42,247,18,14,35,358,29,26,24,137,*7F
$GPGSV,4,3,14,19,22,224,15,09,12,096,17,16,08,304,23,27,08,124,*73
$GPGSV,4,4,14,15,07,142,,24,04,072,*7F
$GPRMC,104440.000,A,3746.9683,S,14516.5444,E,1.73,158.16,250409,,,A*76
$GPGSV,4,1,14,22,73,245,16,18,61,142,16,06,55,266,18,50,46,359,*72
$GPGSV,4,2,14,21,42,082,17,03,42,247,17,14,35,358,29,26,24,137,*70
$GPGSV,4,3,14,19,22,224,15,09,12,096,17,16,08,304,24,27,08,124,*74
$GPGSV,4,4,14,15,07,142,,24,04,072,*7F
$GPRMC,104440.500,A,3746.9682,S,14516.5444,E,1.73,158.16,250409,,,A*72
$GPGSV,4,1,14,22,73,245,15,18,61,142,15,06,55,266,18,50,46,359,*72
$GPGSV,4,2,14,21,42,082,17,03,42,247,17,14,35,358,29,26,24,137,*70
$GPGSV,4,3,14,19,22,224,15,09,12,096,17,16,08,304,24,27,08,124,*74
$GPGSV,4,4,14,15,07,142,,24,04,072,*7F
$GPRMC,104441.000,A,3746.9679,S,14516.5443,E,1.73,158.16,250409,,,A*75
$GPGSV,4,1,14,22,73,245,15,18,61,142,15,06,55,266,18,50,46,359,*72
$GPGSV,4,2,14,21,42,082,17,03,42,247,17,14,35,358,29,26,24,137,*70
$GPGSV,4,3,14,19,22,224,15,09,12,096,18,16,08,304,24,27,08,124,*7B
$GPGSV,4,4,14,15,07,142,,24,04,072,*7F
$GPRMC,104441.500,A,3746.9678,S,14516.5442,E,1.73,158.16,250409,,,A*70
$GPGSV,4,1,14,22,73,245,15,18,61,142,15,06,55,266,18,42,45,351,*7A
$GPGSV,4,2,14,21,42,082,17,03,42,247,17,14,35,358,29,26,24,137,*70
$GPGSV,4,3,14,19,22,224,15,09,12,096,18,16,08,304,24,27,08,124,*7B
$GPGSV,4,4,14,15,07,142,,24,04,072,*7F
$GPRMC,104442.000,A,3746.9677,S,14516.5441,E,1.73,158.16,250409,,,A*7A
$GPGSV,4,1,14,22,73,245,15,18,61,142,15,06,55,266,18,42,45,351,*7A
$GPGSV,4,2,14,21,42,082,17,03,42,247,17,14,35,358,29,26,24,137,*70
$GPGSV,4,3,14,19,22,224,16,09,12,096,19,16,08,304,24,27,08,124,*79
$GPGSV,4,4,14,15,07,142,,24,04,072,*7F
$GPRMC,104442.500,A,3746.9677,S,14516.5442,E,1.73,158.16,250409,,,A*7C
$GPGSV,4,1,14,22,73,245,15,18,61,142,15,06,55,266,18,42,45,351,*7A
$GPGSV,4,2,14,21,42,082,17,03,42,247,17,14,35,358,30,26,24,137,*78
$GPGSV,4,3,14,19,22,224,17,09,12,096,20,16,08,304,24,27,08,124,*72
$GPGSV,4,4,14,15,07,142,,24,04,072,*7F
$GPRMC,104443.000,A,3746.9678,S,14516.5443,E,1.73,158.16,250409,,,A*76
$GPGSV,4,1,14,22,73,245,15,18,61,142,15,06,55,266,18,42,45,351,*7A
$GPGSV,4,2,14,21,42,082,17,03,42,247,17,14,35,358,30,26,24,137,*78
$GPGSV,4,3,14,19,22,224,17,09,12,096,19,16,08,304,24,27,08,124,*78
$GPGSV,4,4,14,15,07,142,,24,04,072,*7F
$GPRMC,104443.500,A,3746.9677,S,14516.5443,E,1.73,158.16,250409,,,A*7C
$GPGSV,4,1,14,22,73,245,15,18,61,142,15,06,55,266,18,42,45,351,*7A
$GPGSV,4,2,14,21,42,082,17,03,42,247,17,14,35,358,30,26,24,137,*78
$GPGSV,4,3,14,19,22,224,16,09,12,096,19,16,08,304,24,27,08,124,*79
$GPGSV,4,4,14,15,07,142,,24,04,072,*7F
$GPRMC,104444.000,A,3746.9679,S,14516.5444,E,1.73,158.16,250409,,,A*77
$GPGSV,4,1,14,22,73,245,15,18,61,142,15,06,55,266,18,21,42,082,17*73
$GPGSV,4,2,14,03,42,247,16,14,35,358,30,47,34,046,,26,24,137,*76
$GPGSV,4,3,14,19,22,224,16,09,12,096,19,16,08,304,24,27,08,124,*79
$GPGSV,4,4,14,15,07,142,,24,04,072,*7F
$GPRMC,104444.500,A,3746.9680,S,14516.5444,E,1.73,158.16,250409,,,A*74
$GPGSV,4,1,14,22,73,245,15,18,61,142,15,06,55,266,18,21,42,082,18*7C
$GPGSV,4,2,14,03,42,247,16,14,35,358,30,47,34,046,,26,24,137,*76
$GPGSV,4,3,14,19,22,224,16,09,12,096,19,16,08,304,24,27,08,124,*79
$GPGSV,4,4,14,15,07,142,,24,04,072,*7F
$GPRMC,104445.000,A,3746.9680,S,14516.5444,E,1.73,158.16,250409,,,A*70
$GPGSV,4,1,14,22,73,245,15,18,61,142,15,06,55,266,18,21,42,082,20*77
$GPGSV,4,2,14,03,42,247,16,14,35,358,30,47,34,046,,26,24,137,*76
$GPGSV,4,3,14,19,22,224,16,09,12,096,19,16,08,304,23,27,08,124,*7E
$GPGSV,4,4,14,15,07,142,,24,04,072,*7F
$GPRMC,104445.500,A,3746.9681,S,14516.5446,E,1.73,158.16,250409,,,A*76
$GPGSV,4,1,14,22,73,245,15,18,61,142,15,06,55,266,18,21,42,082,21*76
$GPGSV,4,2,14,03,42,247,16,14,35,358,30,47,34,046,,26,24,137,*76
$GPGSV,4,3,14,19,22,224,16,09,12,096,20,16,08,304,23,27,08,124,*74
$GPGSV,4,4,14,15,07,142,,24,04,072,*7F
$GPRMC,104446.000,A,3746.9681,S,14516.5446,E,1.73,158.16,250409,,,A*70
$GPGSV,4,1,14,22,73,245,15,18,61,142,15,06,55,266,17,21,42,082,22*7A
$GPGSV,4,2,14,03,42,247,16,14,35,358,29,26,24,137,,19,22,224,16*73
$GPGSV,4,3,14,09,12,096,20,16,08,304,23,27,08,124,,15,07,142,*7B
$GPGSV,4,4,14,35,05,079,,24,04,072,*76
$GPRMC,104446.500,A,3746.9680,S,14516.5447,E,1.73,158.16,250409,,,A*75
$GPGSV,4,1,14,22,73,245,15,18,61,142,15,06,55,266,16,21,42,082,22*7B
$GPGSV,4,2,14,03,42,247,16,14,35,358,29,26,24,137,,19,22,224,16*73
$GPGSV,4,3,14,09,12,096,20,16,08,304,23,27,08,124,,15,07,142,*7B
$GPGSV,4,4,14,35,05,079,,24,04,072,*76
$GPRMC,104447.000,A,3746.9680,S,14516.5448,E,1.73,158.16,250409,,,A*7E
$GPGSV,4,1,14,22,73,245,15,18,61,142,15,06,55,266,16,21,42,082,21*78
$GPGSV,4,2,14,03,42,247,16,14,35,358,29,26,24,137,,19,22,224,16*73
$GPGSV,4,3,14,09,12,096,20,16,08,304,23,27,08,124,,15,07,142,*7B
$GPGSV,4,4,14,35,05,079,,24,04,072,*76
$GPRMC,104447.500,A,3746.9680,S,14516.5448,E,1.73,158.16,250409,,,A*7B
$GPGSV,4,1,14,22,73,245,15,18,61,142,15,06,55,266,16,21,42,082,20*79
$GPGSV,4,2,14,03,42,247,16,14,35,358,29,26,24,137,,19,22,224,16*73
$GPGSV,4,3,14,09,12,096,20,16,08,304,23,27,08,124,,15,07,142,*7B
$GPGSV,4,4,14,35,05,079,,24,04,072,*76
$GPRMC,104448.000,A,3746.9680,S,14516.5449,E,1.73,158.16,250409,,,A*70
$GPGSV,4,1,14,22,73,245,15,18,61,142,15,06,55,266,16,21,42,082,20*79
$GPGSV,4,2,14,03,42,247,16,14,35,358,29,26,24,137,,19,22,224,16*73
$GPGSV,4,3,14,09,12,096,19,16,08,304,23,27,08,124,,15,07,142,*71
$GPGSV,4,4,14,35,05,079,,24,04,072,*76
$GPRMC,104448.500,A,3746.9680,S,14516.5450,E,1.73,158.16,250409,,,A*7D
$GPGSV,4,1,14,22,73,245,15,18,61,142,15,06,55,266,17,21,42,082,20*78
$GPGSV,4,2,14,03,42,247,16,14,35,358,29,26,24,137,,19,22,224,16*73
$GPGSV,4,3,14,09,12,096,18,16,08,304,23,27,08,124,,15,07,142,*70
$GPGSV,4,4,14,24,04,072,,34,,,*4C
$GPRMC,104449.000,A,3746.9680,S,14516.5451,E,1.73,158.16,250409,,,A*78
$GPGSV,4,1,14,22,73,245,15,18,61,142,16,06,55,266,17,21,42,082,19*71
$GPGSV,4,2,14,03,42,247,,14,35,358,28,26,24,137,,19,22,224,16*75
$GPGSV,4,3,14,09,12,096,18,16,08,304,23,27,08,124,,15,07,142,*70
$GPGSV,4,4,14,24,04,072,,34,,,*4C
$GPRMC,104449.500,A,3746.9680,S,14516.5452,E,1.73,158.16,250409,,,A*7E
$GPGSV,4,1,14,22,73,245,15,18,61,142,16,06,55,266,17,21,42,082,18*70
$GPGSV,4,2,14,03,42,247,,14,35,358,28,26,24,137,,19,22,224,15*76
$GPGSV,4,3,14,09,12,096,18,16,08,304,24,27,08,124,,15,07,142,*77
$GPGSV,4,4,14,24,04,072,,36,,,*4E
$GPRMC,104450.000,A,3746.9681,S,14516.5452,E,1.73,158.16,250409,,,A*72
$GPGSV,4,1,14,22,73,245,15,18,61,142,16,06,55,266,17,21,42,082,19*71
$GPGSV,4,2,14,03,42,247,,14,35,358,28,26,24,137,,19,22,224,15*76
$GPGSV,4,3,14,09,12,096,18,16,08,304,24,27,08,124,,15,07,142,*77
$GPGSV,4,4,14,24,04,072,,36,,,*4E
$GPRMC,104450.500,A,3746.9681,S,14516.5453,E,1.73,158.16,250409,,,A*76
$GPGSV,4,1,14,22,73,245,15,18,61,142,16,06,55,266,17,21,42,082,20*7B
$GPGSV,4,2,14,03,42,247,,14,35,358,28,26,24,137,,19,22,224,15*76
$GPGSV,4,3,14,09,12,096,18,16,08,304,24,27,08,124,,15,07,142,*77
$GPGSV,4,4,14,24,04,072,,38,,,*40
$GPRMC,104451.000,A,3746.9682,S,14516.5454,E,1.73,158.16,250409,,,A*76
$GPGSV,4,1,14,22,73,245,15,18,61,142,16,06,55,266,18,21,42,082,21*75
$GPGSV,4,2,14,03,42,247,,14,35,358,28,26,24,137,,19,22,224,16*75
$GPGSV,4,3,14,09,12,096,18,16,08,304,23,27,08,124,,15,07,142,*70
$GPGSV,4,4,14,24,04,072,,38,,,*40
$GPRMC,104451.500,A,3746.9682,S,14516.5454,E,1.73,158.16,250409,,,A*73
$GPGSV,4,1,14,22,73,245,15,18,60,142,16,06,55,266,19,21,42,082,21*75
$GPGSV,4,2,14,03,42,247,,14,35,358,28,26,24,137,,19,22,224,16*75
$GPGSV,4,3,14,09,12,096,18,16,08,304,22,27,08,124,,15,07,142,*71
$GPGSV,4,4,14,24,04,072,,40,,,*4F
$GPRMC,104452.000,A,3746.9683,S,14516.5455,E,1.73,158.16,250409,,,A*75
$GPGSV,4,1,14,22,73,245,15,18,60,142,16,06,55,266,20,21,42,082,21*7F
$GPGSV,4,2,14,03,42,247,,14,35,358,28,26,24,137,,19,22,224,16*75
$GPGSV,4,3,14,09,12,096,18,16,08,304,22,27,08,124,,15,07,142,*71
$GPGSV,4,4,14,24,04,072,,40,,,*4F
$GPRMC,104452.500,A,3746.9683,S,14516.5455,E,1.73,158.16,250409,,,A*70
$GPGSV,4,1,14,22,73,245,16,18,60,142,16,06,55,266,19,21,42,082,20*77
$GPGSV,4,2,14,03,42,247,,14,35,358,28,26,24,137,,19,22,224,16*75
$GPGSV,4,3,14,09,12,096,18,16,08,304,21,27,08,124,,15,07,142,*72
$GPGSV,4,4,14,24,04,072,,41,,,*4E
$GPRMC,104453.000,A,3746.9684,S,14516.5455,E,1.73,158.16,250409,,,A*73
$GPGSV,4,1,14,22,73,245,16,18,60,142,16,06,55,266,18,21,42,081,19*7F
$GPGSV,4,2,14,03,42,247,,14,35,358,28,26,24,137,,19,22,224,16*75
$GPGSV,4,3,14,09,12,096,18,16,08,304,22,27,08,124,,15,07,142,*71
$GPGSV,4,4,14,24,04,072,,41,,,*4E
$GPRMC,104453.500,A,3746.9685,S,14516.5455,E,1.73,158.16,250409,,,A*77
$GPGSV,4,1,14,22,73,244,16,18,60,142,16,06,55,266,18,21,42,081,19*7E
$GPGSV,4,2,14,03,42,247,,14,35,358,28,26,24,137,,19,22,224,16*75
$GPGSV,4,3,14,09,12,096,18,16,08,304,22,27,08,124,,15,07,142,*71
$GPGSV,4,4,14,24,04,072,,43,,,*4C
$GPRMC,104454.000,A,3746.9685,S,14516.5455,E,1.73,158.16,250409,,,A*75
$GPGSV,4,1,14,22,73,244,15,18,60,142,16,06,55,266,18,21,42,081,19*7D
$GPGSV,4,2,14,03,42,247,,14,35,358,28,26,24,137,,19,22,224,16*75
$GPGSV,4,3,14,09,12,096,18,16,08,304,22,27,08,124,,15,07,142,*71
$GPGSV,4,4,14,24,04,072,,43,,,*4C
$GPRMC,104454.500,A,3746.9686,S,14516.5454,E,1.73,158.16,250409,,,A*72
$GPGSV,4,1,14,22,73,244,15,18,60,142,16,06,55,266,18,21,42,081,18*7C
$GPGSV,4,2,14,03,42,247,,14,35,358,28,26,24,137,,19,22,224,16*75
$GPGSV,4,3,14,09,12,096,18,16,08,304,22,27,08,124,,15,07,142,*71
$GPGSV,4,4,14,24,04,072,,45,,,*4A
$GPRMC,104455.000,A,3746.9686,S,14516.5454,E,1.73,158.16,250409,,,A*76
$GPGSV,4,1,14,22,73,244,15,18,60,142,16,06,55,266,19,21,42,081,19*7C
$GPGSV,4,2,14,03,42,247,,14,35,358,28,26,24,137,,19,22,224,16*75
$GPGSV,4,3,14,09,12,096,18,16,08,304,22,27,08,124,,15,07,142,*71
$GPGSV,4,4,14,24,04,072,,45,,,*4A
$GPRMC,104455.500,A,3746.9687,S,14516.5454,E,1.73,158.16,250409,,,A*72
$GPGSV,4,1,14,22,73,244,15,18,60,142,16,06,55,266,20,21,42,081,19*76
$GPGSV,4,2,14,03,42,247,,14,35,358,28,26,24,137,,19,22,224,16*75
$GPGSV,4,3,14,09,12,096,18,16,08,304,22,27,08,124,,15,07,142,*71
$GPGSV,4,4,14,24,04,072,,45,,,*4A
$GPRMC,104456.000,A,3746.9688,S,14516.5454,E,1.73,158.16,250409,,,A*7B
$GPGSV,4,1,14,22,73,244,15,18,60,142,16,06,55,266,20,21,42,081,19*76
$GPGSV,4,2,14,03,42,247,,14,35,358,28,26,24,137,,19,22,224,16*75
$GPGSV,4,3,14,09,12,096,18,16,08,304,22,27,08,125,,15,07,142,*70
$GPGSV,4,4,14,24,04,072,,46,,,*49
$GPRMC,104456.500,A,3746.9689,S,14516.5453,E,1.73,158.16,250409,,,A*78
$GPGSV,4,1,14,22,73,244,15,18,60,142,16,06,55,266,20,21,42,081,19*76
$GPGSV,4,2,14,03,42,247,,14,35,358,28,26,24,137,,19,22,224,16*75
$GPGSV,4,3,14,09,12,096,18,16,08,304,23,27,08,125,,15,07,142,*71
$GPGSV,4,4,14,24,04,072,,46,,,*49
$GPRMC,104457.000,A,3746.9690,S,14516.5454,E,1.73,158.16,250409,,,A*73
$GPGSV,4,1,14,22,73,244,15,18,60,142,16,06,55,266,20,21,42,081,19*76
$GPGSV,4,2,14,03,42,247,,14,35,358,28,26,24,137,,19,22,224,16*75
$GPGSV,4,3,14,09,12,096,18,16,08,304,23,27,08,125,,15,07,142,*71
$GPGSV,4,4,14,24,04,072,,49,,,*46
$GPRMC,104457.500,A,3746.9692,S,14516.5455,E,1.73,158.16,250409,,,A*75
$GPGSV,4,1,14,22,73,244,16,18,60,142,16,06,55,266,20,21,42,081,19*75
$GPGSV,4,2,14,03,42,247,,14,35,358,28,26,24,137,,19,22,224,15*76
$GPGSV,4,3,14,09,12,096,18,16,08,304,23,27,08,125,,15,07,142,*71
$GPGSV,4,4,14,24,04,072,,49,,,*46
$GPRMC,104458.000,A,3746.9693,S,14516.5454,E,1.73,158.16,250409,,,A*7F
$GPGSV,4,1,14,22,73,244,16,18,60,142,17,06,55,266,20,50,46,359,*78
$GPGSV,4,2,14,21,42,081,19,03,42,247,,14,35,358,28,26,24,137,*7A
$GPGSV,4,3,14,19,22,224,15,09,12,096,18,16,08,304,23,27,08,125,*7D
$GPGSV,4,4,14,15,07,142,,24,04,072,*7F
$GPRMC,104458.500,A,3746.9694,S,14516.5453,E,1.73,158.16,250409,,,A*7A
$GPGSV,4,1,14,22,73,244,16,18,60,142,18,06,55,266,20,50,46,359,*77
$GPGSV,4,2,14,21,42,081,19,03,42,247,,14,35,358,28,26,24,137,*7A
$GPGSV,4,3,14,19,22,224,15,09,12,096,18,16,08,304,23,27,08,125,*7D
$GPGSV,4,4,14,15,07,142,,24,04,072,*7F
$GPRMC,104459.000,A,3746.9693,S,14516.5452,E,1.73,158.16,250409,,,A*78
$GPGSV,4,1,14,22,73,244,17,18,60,142,18,06,55,266,20,50,46,359,*76
$GPGSV,4,2,14,21,42,081,19,03,42,247,,14,35,358,28,26,24,137,*7A
$GPGSV,4,3,14,19,22,224,15,09,12,096,18,16,08,304,23,27,08,125,*7D
$GPGSV,4,4,14,15,07,142,,24,04,072,*7F
$GPRMC,104459.500,A,3746.9695,S,14516.5451,E,1.73,158.16,250409,,,A*78
$GPGSV,4,1,14,22,73,244,18,18,60,142,18,06,55,266,19,50,46,359,*73
$GPGSV,4,2,14,21,42,081,20,03,42,247,,14,35,358,28,26,24,137,*70
$GPGSV,4,3,14,19,22,224,15,09,12,096,18,16,08,304,23,27,08,125,*7D
$GPGSV,4,4,14,15,07,142,,24,04,072,*7F
$GPRMC,104500.000,A,3746.9695,S,14516.5450,E,1.73,158.16,250409,,,A*71
$GPGSV,4,1,14,22,73,244,18,18,60,142,18,06,55,266,19,50,46,359,*73
$GPGSV,4,2,14,21,42,081,21,03,42,247,,14,35,358,28,26,24,137,*71
$GPGSV,4,3,14,19,22,224,15,09,12,096,18,16,08,304,22,27,08,125,*7C
$GPGSV,4,4,14,15,07,142,,24,04,072,*7F
$GPRMC,104500.500,A,3746.9693,S,14516.5448,E,1.73,158.16,250409,,,A*7B
$GPGSV,4,1,14,22,73,244,18,18,60,142,18,06,55,266,19,42,45,351,*7B
$GPGSV,4,2,14,21,42,081,20,03,42,247,,14,35,358,28,26,24,137,*70
$GPGSV,4,3,14,19,22,224,15,09,12,096,18,16,08,304,21,27,08,125,*7F
$GPGSV,4,4,14,15,07,142,,24,04,072,*7F
$GPRMC,104501.000,A,3746.9693,S,14516.5448,E,1.73,158.16,250409,,,A*7F
$GPGSV,4,1,14,22,73,244,18,18,60,142,18,06,55,266,20,42,45,351,*71
$GPGSV,4,2,14,21,42,081,20,03,42,247,,14,35,358,28,26,24,137,*70
$GPGSV,4,3,14,19,22,224,15,09,12,096,18,16,08,304,21,27,08,125,*7F
$GPGSV,4,4,14,15,07,142,,24,04,072,*7F
$GPRMC,104501.500,A,3746.9693,S,14516.5448,E,1.73,158.16,250409,,,A*7A
$GPGSV,4,1,14,22,73,244,18,18,60,142,18,06,55,266,20,42,45,351,*71
$GPGSV,4,2,14,21,42,081,19,03,42,247,,14,35,358,28,26,24,137,*7A
$GPGSV,4,3,14,19,22,224,15,09,12,096,18,16,08,304,21,27,08,125,*7F
$GPGSV,4,4,14,15,07,142,,24,04,072,*7F
$GPRMC,104502.000,A,3746.9694,S,14516.5448,E,1.73,158.16,250409,,,A*7B
$GPGSV,4,1,14,22,73,244,18,18,60,142,18,06,55,266,21,42,45,351,*70
$GPGSV,4,2,14,21,42,081,20,03,42,247,,14,35,358,28,26,24,137,*70
$GPGSV,4,3,14,19,22,224,15,09,12,096,18,16,08,304,21,27,08,125,*7F
$GPGSV,4,4,14,15,07,142,,24,04,072,*7F
$GPRMC,104502.500,A,3746.9694,S,14516.5449,E,1.73,158.16,250409,,,A*7F
$GPGSV,4,1,14,22,73,244,18,18,60,142,18,06,55,266,22,42,45,351,*73
$GPGSV,4,2,14,21,42,081,21,03,42,247,,14,35,358,28,26,24,137,*71
$GPGSV,4,3,14,19,22,224,15,09,12,096,18,16,08,304,21,27,08,125,*7F
$GPGSV,4,4,14,15,07,142,,24,04,072,*7F
$GPRMC,104503.000,A,3746.9695,S,14516.5449,E,1.73,158.16,250409,,,A*7A
$GPGSV,4,1,14,22,73,244,17,18,60,142,18,06,55,266,21,21,42,081,22*73
$GPGSV,4,2,14,03,42,247,,14,35,358,28,47,34,046,,26,24,137,*78
$GPGSV,4,3,14,19,22,224,15,09,12,096,18,16,08,304,21,27,08,125,*7F
$GPGSV,4,4,14,15,07,142,,24,04,072,*7F
$GPRMC,104503.500,A,3746.9695,S,14516.5450,E,1.73,158.16,250409,,,A*77
$GPGSV,4,1,14,22,73,244,17,18,60,142,19,06,55,266,20,21,42,081,21*70
$GPGSV,4,2,14,03,42,247,,14,35,358,28,47,34,046,,26,24,137,*78
$GPGSV,4,3,14,19,22,224,15,09,12,096,18,16,08,304,21,27,08,125,*7F
$GPGSV,4,4,14,15,07,142,,24,04,072,*7F
$GPRMC,104504.000,A,3746.9697,S,14516.5451,E,1.73,158.16,250409,,,A*76
$GPGSV,4,1,14,22,73,244,16,18,60,142,18,06,55,266,21,21,42,081,21*71
$GPGSV,4,2,14,03,42,247,,14,35,358,28,47,34,046,,26,24,137,*78
$GPGSV,4,3,14,19,22,224,15,09,12,096,18,16,08,304,21,27,08,125,*7F
$GPGSV,4,4,14,15,07,142,,24,04,072,*7F
$GPRMC,104504.500,A,3746.9700,S,14516.5452,E,1.73,158.16,250409,,,A*7F
$GPGSV,4,1,14,22,73,244,16,18,60,142,18,06,55,266,22,21,42,081,20*73
$GPGSV,4,2,14,03,42,247,,14,35,358,28,47,34,046,,26,24,137,*78
$GPGSV,4,3,14,19,22,224,15,09,12,096,18,16,08,304,22,27,08,125,*7C
$GPGSV,4,4,14,15,07,142,,24,04,072,*7F
$GPRMC,104505.000,A,3746.9702,S,14516.5452,E,1.73,158.16,250409,,,A*79
$GPGSV,4,1,14,22,73,244,16,18,60,142,18,06,55,266,22,21,42,081,19*79
$GPGSV,4,2,14,03,42,247,,14,35,358,28,26,24,137,,19,22,224,15*76
$GPGSV,4,3,14,09,12,096,18,16,08,304,22,27,08,125,,15,07,142,*70
$GPGSV,4,4,14,35,05,079,,24,04,072,*76
$GPRMC,104505.500,A,3746.9704,S,14516.5452,E,1.73,158.16,250409,,,A*7A
$GPGSV,4,1,14,22,73,244,16,18,60,142,17,06,55,266,22,21,42,081,19*76
$GPGSV,4,2,14,03,42,247,,14,35,358,27,26,24,137,,19,22,224,15*79
$GPGSV,4,3,14,09,12,096,18,16,08,304,22,27,08,125,,15,07,142,*70
$GPGSV,4,4,14,35,05,079,,24,04,072,*76
$GPRMC,104506.000,A,3746.9705,S,14516.5452,E,1.73,158.16,250409,,,A*7D
$GPGSV,4,1,14,22,73,244,16,18,60,142,17,06,55,266,22,21,42,081,19*76
$GPGSV,4,2,14,03,42,247,,14,35,358,26,26,24,137,,19,22,224,15*78
$GPGSV,4,3,14,09,12,096,18,16,08,304,22,27,08,125,,15,07,142,*70
$GPGSV,4,4,14,35,05,079,,24,04,072,*76
$GPRMC,104506.500,A,3746.9705,S,14516.5452,E,1.73,158.16,250409,,,A*78
$GPGSV,4,1,14,22,73,244,16,18,60,142,17,06,55,266,23,21,42,081,19*77
$GPGSV,4,2,14,03,42,247,,14,35,358,26,26,24,137,,19,22,224,15*78
$GPGSV,4,3,14,09,12,096,18,16,08,304,23,27,08,125,,15,07,142,*71
$GPGSV,4,4,14,35,05,079,,24,04,072,*76
$GPRMC,104507.000,A,3746.9706,S,14516.5451,E,1.73,158.16,250409,,,A*7C
$GPGSV,4,1,14,22,73,244,16,18,60,142,17,06,55,266,23,21,42,081,19*77
$GPGSV,4,2,14,03,42,247,,14,35,358,26,26,24,137,,19,22,224,15*78
$GPGSV,4,3,14,09,12,096,18,16,08,304,23,27,08,125,,15,07,142,*71
$GPGSV,4,4,14,35,05,079,,24,04,072,*76
$GPRMC,104507.500,A,3746.9704,S,14516.5451,E,1.73,158.16,250409,,,A*7B
$GPGSV,4,1,14,22,73,244,16,18,60,142,17,06,55,266,23,21,42,081,18*76
$GPGSV,4,2,14,03,42,247,,14,35,358,26,26,24,137,,19,22,224,15*78
$GPGSV,4,3,14,09,12,096,18,16,08,304,23,27,08,125,,15,07,142,*71
$GPGSV,4,4,14,24,04,072,,34,,,*4C
$GPRMC,104508.000,A,3746.9704,S,14516.5451,E,1.73,158.16,250409,,,A*71
$GPGSV,4,1,14,22,73,244,16,18,60,142,17,06,55,266,24,21,42,081,18*71
$GPGSV,4,2,14,03,42,247,,14,35,358,26,26,24,137,,19,22,224,15*78
$GPGSV,4,3,14,09,12,096,18,16,08,304,22,27,08,125,,15,07,142,*70
$GPGSV,4,4,14,24,04,072,,34,,,*4C
$GPRMC,104508.500,A,3746.9704,S,14516.5452,E,1.73,158.16,250409,,,A*77
$GPGSV,4,1,14,22,73,244,16,18,60,142,17,06,55,266,25,21,42,081,18*70
$GPGSV,4,2,14,03,42,247,,14,35,358,26,26,24,137,,19,22,224,15*78
$GPGSV,4,3,14,09,12,096,18,16,08,304,22,27,08,125,,15,07,142,*70
$GPGSV,4,4,14,24,04,072,,36,,,*4E
$GPRMC,104509.000,A,3746.9704,S,14516.5454,E,1.73,158.16,250409,,,A*75
$GPGSV,4,1,14,22,73,244,15,18,60,142,17,06,55,266,24,21,42,081,19*73
$GPGSV,4,2,14,03,42,247,,14,35,358,26,26,24,137,,19,22,224,16*7B
$GPGSV,4,3,14,09,12,096,18,16,08,304,22,27,08,125,,15,07,142,*70
$GPGSV,4,4,14,24,04,072,,36,,,*4E
$GPRMC,104509.500,A,3746.9704,S,14516.5455,E,1.73,158.16,250409,,,A*71
$GPGSV,4,1,14,22,73,244,15,18,60,142,17,06,55,266,24,21,42,081,20*79
$GPGSV,4,2,14,03,42,247,,14,35,358,26,26,24,137,,19,22,224,16*7B
$GPGSV,4,3,14,09,12,096,18,16,08,304,22,27,08,125,,15,07,142,*70
$GPGSV,4,4,14,24,04,072,,38,,,*40
$GPRMC,104510.000,A,3746.9703,S,14516.5456,E,1.73,158.16,250409,,,A*78
$GPGSV,4,1,14,22,73,244,15,18,60,142,17,06,55,266,24,21,42,081,20*79
$GPGSV,4,2,14,03,42,247,,14,35,358,26,26,24,137,,19,22,224,16*7B
$GPGSV,4,3,14,09,12,096,18,16,08,304,21,27,08,125,,15,07,142,*73
$GPGSV,4,4,14,24,04,072,,38,,,*40
$GPRMC,104510.500,A,3746.9703,S,14516.5456,E,1.73,158.16,250409,,,A*7D
$GPGSV,4,1,14,22,73,244,15,18,60,142,16,06,55,266,24,21,42,081,20*78
$GPGSV,4,2,14,03,42,247,,14,35,358,26,26,24,137,,19,22,224,16*7B
$GPGSV,4,3,14,09,12,096,18,16,08,304,20,27,08,125,,15,07,142,*72
$GPGSV,4,4,14,24,04,072,,40,,,*4F
$GPRMC,104511.000,A,3746.9704,S,14516.5455,E,1.73,158.16,250409,,,A*7D
$GPGSV,4,1,14,22,73,244,15,18,60,142,15,06,55,266,24,21,42,081,20*7B
$GPGSV,4,2,14,03,42,247,,14,35,358,26,26,24,137,,19,22,224,16*7B
$GPGSV,4,3,14,09,12,096,18,16,08,304,20,27,08,125,,15,07,142,*72
$GPGSV,4,4,14,24,04,072,,40,,,*4F
$GPRMC,104511.500,A,3746.9704,S,14516.5455,E,1.73,158.16,250409,,,A*78
$GPGSV,4,1,14,22,73,244,15,18,60,142,16,06,55,266,24,21,42,081,20*78
$GPGSV,4,2,14,03,42,247,,14,35,358,26,26,24,137,,19,22,224,16*7B
$GPGSV,4,3,14,09,12,096,18,16,08,304,20,27,08,125,,15,07,142,*72
$GPGSV,4,4,14,24,04,072,,41,,,*4E
$GPRMC,104512.000,A,3746.9705,S,14516.5454,E,1.73,158.16,250409,,,A*7E
$GPGSV,4,1,14,22,73,244,15,18,60,142,17,06,55,266,24,21,42,081,20*79
$GPGSV,4,2,14,03,42,247,,14,35,358,26,26,24,137,,19,22,224,16*7B
$GPGSV,4,3,14,09,12,096,18,16,08,304,20,27,08,125,,15,07,142,*72
$GPGSV,4,4,14,24,04,072,,41,,,*4E
$GPRMC,104512.500,A,3746.9704,S,14516.5454,E,1.73,158.16,250409,,,A*7A
$GPGSV,4,1,14,22,73,244,15,18,60,142,17,06,55,266,24,21,42,081,20*79
$GPGSV,4,2,14,03,42,247,,14,35,358,26,26,24,137,,19,22,224,16*7B
$GPGSV,4,3,14,09,12,096,18,16,08,304,20,27,08,125,,15,07,142,*72
$GPGSV,4,4,14,24,04,072,,43,,,*4C
$GPRMC,104513.000,A,3746.9704,S,14516.5455,E,1.73,158.16,250409,,,A*7F
$GPGSV,4,1,14,22,73,244,15,18,60,142,18,06,55,266,24,21,42,081,20*76
$GPGSV,4,2,14,03,42,247,,14,35,358,26,26,24,137,,19,22,224,16*7B
$GPGSV,4,3,14,09,12,096,18,16,08,304,20,27,08,125,,15,07,142,*72
$GPGSV,4,4,14,24,04,072,,43,,,*4C
$GPRMC,104513.500,A,3746.9703,S,14516.5456,E,1.73,158.16,250409,,,A*7E
$GPGSV,4,1,14,22,73,244,15,18,60,142,18,06,55,266,24,21,42,081,20*76
$GPGSV,4,2,14,03,42,247,,14,35,358,26,26,24,137,,19,22,224,16*7B
$GPGSV,4,3,14,09,12,096,18,16,08,304,20,27,08,125,,15,07,142,*72
$GPGSV,4,4,14,24,04,072,,43,,,*4C
$GPRMC,104514.000,A,3746.9702,S,14516.5457,E,1.73,158.16,250409,,,A*7C
$GPGSV,4,1,13,22,73,244,15,18,60,142,18,06,55,266,24,21,42,081,20*71
$GPGSV,4,2,13,03,42,247,,14,35,358,25,26,24,137,,19,22,224,16*7F
$GPGSV,4,3,13,09,12,096,18,16,08,304,20,27,08,125,,15,07,142,*75
$GPGSV,4,4,13,24,04,072,*4C
$GPRMC,104514.500,A,3746.9700,S,14516.5459,E,1.73,158.16,250409,,,A*75
$GPGSV,4,1,14,22,73,244,,18,60,142,18,06,55,266,24,21,42,081,20*72
$GPGSV,4,2,14,03,42,247,,14,35,358,25,26,24,137,,19,22,224,16*78
$GPGSV,4,3,14,09,12,096,18,16,08,304,20,27,08,125,,15,07,142,*72
$GPGSV,4,4,14,24,04,072,,45,,,*4A
$GPRMC,104515.000,A,3746.9700,S,14516.5460,E,1.73,158.16,250409,,,A*7B
$GPGSV,4,1,14,22,73,244,,18,60,142,18,06,55,266,24,21,42,081,21*73
$GPGSV,4,2,14,03,42,247,,14,35,358,25,26,24,137,,19,22,224,16*78
$GPGSV,4,3,14,09,12,096,18,16,08,304,20,27,08,125,,15,07,142,*72
$GPGSV,4,4,14,24,04,072,,45,,,*4A
$GPRMC,104515.500,A,3746.9699,S,14516.5461,E,1.73,158.16,250409,,,A*7E
$GPGSV,4,1,14,22,73,244,,18,60,142,17,06,55,266,25,21,42,081,21*7D
$GPGSV,4,2,14,03,42,247,,14,35,358,25,26,24,137,,19,22,224,17*79
$GPGSV,4,3,14,09,12,096,18,16,08,304,20,27,08,125,,15,07,142,*72
$GPGSV,4,4,14,24,04,072,,46,,,*49
$GPRMC,104516.000,A,3746.9700,S,14516.5461,E,1.73,158.16,250409,,,A*79
$GPGSV,4,1,14,22,73,244,,18,60,142,17,06,55,266,25,21,42,081,21*7D
$GPGSV,4,2,14,03,42,247,,14,35,358,25,26,24,137,,19,22,224,18*76
$GPGSV,4,3,14,09,12,096,18,16,08,304,21,27,08,125,,15,07,142,*73
$GPGSV,4,4,14,24,04,072,,46,,,*49
$GPRMC,104516.500,A,3746.9701,S,14516.5461,E,1.73,158.16,250409,,,A*7D
$GPGSV,4,1,14,22,73,244,,18,60,142,17,06,55,266,25,21,42,081,21*7D
$GPGSV,4,2,14,03,42,247,,14,35,358,24,26,24,137,,19,22,224,18*77
$GPGSV,4,3,14,09,12,096,18,16,08,304,22,27,08,125,,15,07,142,*70
$GPGSV,4,4,14,24,04,072,,49,,,*46
$GPRMC,104517.000,A,3746.9701,S,14516.5461,E,1.73,158.16,250409,,,A*79
$GPGSV,4,1,14,22,73,244,,18,60,142,16,06,55,266,25,21,42,081,21*7C
$GPGSV,4,2,14,03,42,247,,14,35,358,23,26,24,137,,19,22,224,18*70
$GPGSV,4,3,14,09,12,096,18,16,08,304,22,27,08,125,,15,07,142,*70
$GPGSV,4,4,14,24,04,072,,49,,,*46
$GPRMC,104517.500,A,3746.9702,S,14516.5462,E,1.73,158.16,250409,,,A*7C
$GPGSV,4,1,14,22,73,244,,18,60,142,16,06,55,267,24,21,42,081,21*7C
$GPGSV,4,2,14,03,42,247,,14,35,358,22,26,24,137,,19,22,224,18*71
$GPGSV,4,3,14,09,12,096,18,16,08,304,22,27,08,125,,15,07,142,*70
$GPGSV,4,4,14,24,04,072,,44,00,276,*78
$GPRMC,104518.000,A,3746.9702,S,14516.5462,E,1.73,158.16,250409,,,A*76
$GPGSV,4,1,14,22,73,244,,18,60,142,15,06,55,267,23,21,42,081,21*78
$GPGSV,4,2,14,03,42,247,,14,35,358,21,26,24,137,,19,22,224,18*72
$GPGSV,4,3,14,09,12,096,18,16,08,304,22,27,08,125,,15,07,142,*70
$GPGSV,4,4,14,24,04,072,,44,00,276,*78
$GPRMC,104518.500,A,3746.9702,S,14516.5462,E,1.73,158.16,250409,,,A*73
$GPGSV,4,1,14,22,73,244,,18,60,142,15,06,55,267,23,21,42,081,21*78
$GPGSV,4,2,14,03,42,247,,14,35,358,21,26,24,137,,19,22,224,18*72
$GPGSV,4,3,14,09,12,096,18,16,08,304,22,27,08,125,,15,07,142,*70
$GPGSV,4,4,14,24,04,072,,44,00,276,*78
$GPRMC,104519.000,A,3746.9702,S,14516.5462,E,1.73,158.16,250409,,,A*77
$GPGSV,4,1,14,22,73,244,,18,60,142,15,06,55,267,23,21,42,081,21*78
$GPGSV,4,2,14,03,42,247,,14,35,358,21,26,24,137,,19,22,224,18*72
$GPGSV,4,3,14,09,12,096,18,16,08,304,21,27,08,125,,15,07,142,*73
$GPGSV,4,4,14,24,04,072,,48,-2,084,*64
$GPRMC,104519.500,A,3746.9702,S,14516.5463,E,1.73,158.16,250409,,,A*73
$GPGSV,4,1,14,22,73,244,,18,60,142,16,06,55,267,23,21,42,081,21*7B
$GPGSV,4,2,14,03,42,247,,14,35,358,22,26,24,137,,19,22,224,18*71
$GPGSV,4,3,14,09,12,096,18,16,08,304,21,27,08,125,,15,07,142,*73
$GPGSV,4,4,14,24,04,072,,48,-2,084,*64
$GPRMC,104520.000,A,3746.9702,S,14516.5464,E,1.73,158.16,250409,,,A*7B
$GPGSV,4,1,14,22,73,244,,18,60,142,16,06,55,267,24,21,42,081,21*7C
$GPGSV,4,2,14,03,42,247,,14,35,358,22,26,24,137,,19,22,224,18*71
$GPGSV,4,3,14,09,12,096,18,16,08,304,21,27,08,125,,15,07,142,*73
$GPGSV,4,4,14,24,04,072,,51,,,*4F
$GPRMC,104520.500,A,3746.9702,S,14516.5465,E,1.73,158.16,250409,,,A*7F
$GPGSV,4,1,14,22,73,244,,18,60,142,16,06,55,267,25,21,42,081,20*7C
$GPGSV,4,2,14,03,42,247,,14,35,358,22,26,24,137,,19,22,224,18*71
$GPGSV,4,3,14,09,12,096,18,16,08,304,21,27,08,125,,15,07,142,*73
$GPGSV,4,4,14,24,04,072,,51,,,*4F
$GPRMC,104521.000,A,3746.9700,S,14516.5467,E,1.73,158.16,250409,,,A*7B
$GPGSV,4,1,14,22,73,244,,18,60,142,16,06,55,267,25,21,42,081,20*7C
$GPGSV,4,2,14,03,42,247,,14,35,358,22,26,24,137,,19,22,224,18*71
$GPGSV,4,3,14,09,12,096,18,16,08,304,21,27,08,125,,15,07,142,*73
$GPGSV,4,4,14,24,04,072,,39,,,*41
$GPRMC,104521.500,A,3746.9698,S,14516.5470,E,1.73,158.16,250409,,,A*78
$GPGSV,4,1,14,22,73,244,,18,60,142,16,06,55,267,24,21,42,081,20*7D
$GPGSV,4,2,14,03,42,247,,14,35,358,22,26,24,137,,19,22,224,18*71
$GPGSV,4,3,14,09,12,096,18,16,08,304,21,27,08,125,,15,07,142,*73
$GPGSV,4,4,14,24,04,072,,39,,,*41
$GPRMC,104522.000,A,3746.9696,S,14516.5471,E,1.73,158.16,250409,,,A*71
$GPGSV,4,1,13,22,73,244,,18,60,142,16,06,55,267,23,21,42,081,20*7D
$GPGSV,4,2,13,03,42,247,,14,35,358,22,26,24,137,,19,22,224,18*76
$GPGSV,4,3,13,09,12,096,18,16,08,304,21,27,08,125,,15,07,143,*75
$GPGSV,4,4,13,24,04,072,*4C
$GPRMC,104522.500,A,3746.9694,S,14516.5473,E,1.73,158.16,250409,,,A*74
$GPGSV,4,1,14,22,73,244,,18,60,142,16,06,55,267,22,21,42,081,21*7A
$GPGSV,4,2,14,03,42,247,,14,35,358,22,26,24,137,,19,22,224,18*71
$GPGSV,4,3,14,09,12,096,19,16,08,304,21,27,08,125,,15,07,143,*73
$GPGSV,4,4,14,24,04,072,,37,,,*4F
$GPRMC,104523.000,A,3746.9691,S,14516.5474,E,1.73,158.16,250409,,,A*72
$GPGSV,4,1,14,22,73,244,,18,60,142,15,06,55,267,22,21,42,081,21*79
$GPGSV,4,2,14,03,42,247,,14,35,358,22,26,24,137,,19,22,224,18*71
$GPGSV,4,3,14,09,12,096,19,16,08,304,21,27,08,125,,15,07,143,*73
$GPGSV,4,4,14,24,04,072,,37,,,*4F
$GPRMC,104523.500,A,3746.9688,S,14516.5474,E,1.73,158.16,250409,,,A*7F
$GPGSV,4,1,14,22,73,244,,18,60,142,15,06,55,267,22,21,42,081,21*79
$GPGSV,4,2,14,03,42,247,,14,35,358,22,26,24,137,,19,22,224,18*71
$GPGSV,4,3,14,09,12,096,19,16,08,304,21,27,08,125,,15,07,143,*73
$GPGSV,4,4,14,24,04,072,,33,,,*4B
$GPRMC,104524.000,A,3746.9685,S,14516.5475,E,1.73,158.16,250409,,,A*71
$GPGSV,4,1,14,22,73,244,,18,60,142,15,06,55,267,23,21,42,081,21*78
$GPGSV,4,2,14,03,42,247,,14,35,358,23,26,24,137,,19,22,224,18*70
$GPGSV,4,3,14,09,12,096,19,16,08,304,21,27,08,125,,15,07,143,*73
$GPGSV,4,4,14,24,04,072,,33,,,*4B
$GPRMC,104524.500,A,3746.9681,S,14516.5478,E,1.73,158.16,250409,,,A*7D
$GPGSV,4,1,14,22,73,244,16,18,60,142,15,06,55,267,22,21,42,081,21*7E
$GPGSV,4,2,14,03,42,247,,14,35,358,23,26,24,137,,19,22,224,18*70
$GPGSV,4,3,14,09,12,096,19,16,08,304,21,27,08,125,,15,07,143,*73
$GPGSV,4,4,14,24,04,072,,33,,,*4B
$GPRMC,104525.000,A,3746.9677,S,14516.5479,E,1.73,158.16,250409,,,A*71
$GPGSV,4,1,14,22,73,244,16,18,60,142,15,06,55,267,22,50,46,359,*79
$GPGSV,4,2,14,21,42,081,21,03,42,247,,14,35,358,23,26,24,137,*7A
$GPGSV,4,3,14,19,22,224,18,09,12,096,19,16,08,304,20,27,08,125,*72
$GPGSV,4,4,14,15,07,143,,24,04,072,*7E
$GPRMC,104525.500,A,3746.9674,S,14516.5480,E,1.73,158.16,250409,,,A*71
$GPGSV,4,1,14,22,73,244,16,18,60,142,15,06,55,267,21,50,46,359,*7A
$GPGSV,4,2,14,21,42,081,21,03,42,247,,14,35,358,22,26,24,137,*7B
$GPGSV,4,3,14,19,22,224,18,09,12,096,19,16,08,304,19,27,08,125,*78
$GPGSV,4,4,14,15,07,143,,24,04,072,*7E
$GPRMC,104526.000,A,3746.9673,S,14516.5479,E,1.73,158.16,250409,,,A*76
$GPGSV,4,1,14,22,73,244,16,18,60,142,15,06,55,267,21,50,46,359,*7A
$GPGSV,4,2,14,21,42,081,20,03,42,247,,14,35,358,23,26,24,137,*7B
$GPGSV,4,3,14,19,22,224,18,09,12,096,19,16,08,304,19,27,08,125,*78
$GPGSV,4,4,14,15,07,143,,24,04,072,*7E
$GPRMC,104526.500,A,3746.9669,S,14516.5479,E,1.73,158.16,250409,,,A*78
$GPGSV,4,1,14,22,73,244,16,18,60,142,15,06,55,267,22,42,45,351,*71
$GPGSV,4,2,14,21,42,081,20,03,42,247,,14,35,358,23,26,24,137,*7B
$GPGSV,4,3,14,19,22,224,18,09,12,096,18,16,08,304,19,27,08,125,*79
$GPGSV,4,4,14,15,07,143,,24,04,072,*7E
$GPRMC,104527.000,A,3746.9668,S,14516.5480,E,1.73,158.16,250409,,,A*7B
$GPGSV,4,1,14,22,73,244,17,18,60,142,16,06,55,267,22,42,45,351,*73
$GPGSV,4,2,14,21,42,081,20,03,42,247,,14,35,358,24,26,24,137,*7C
$GPGSV,4,3,14,19,22,224,18,09,12,096,18,16,08,304,19,27,08,125,*79
$GPGSV,4,4,14,15,07,143,,24,04,072,*7E
$GPRMC,104527.500,A,3746.9668,S,14516.5480,E,1.73,158.16,250409,,,A*7E
$GPGSV,4,1,14,22,73,244,17,18,60,142,16,06,55,267,22,42,45,351,*73
$GPGSV,4,2,14,21,42,081,20,03,42,247,,14,35,358,24,26,24,137,*7C
$GPGSV,4,3,14,19,22,224,18,09,12,096,18,16,08,304,19,27,08,125,*79
$GPGSV,4,4,14,15,07,143,,24,04,072,*7E
$GPRMC,104528.000,A,3746.9668,S,14516.5481,E,1.73,158.16,250409,,,A*75
$GPGSV,4,1,14,22,73,244,17,18,60,142,16,06,55,267,21,21,42,081,20*7E
$GPGSV,4,2,14,03,42,247,,14,35,358,24,47,34,046,,26,24,137,*74
$GPGSV,4,3,14,19,22,224,18,09,12,096,18,16,08,304,20,27,08,125,*73
$GPGSV,4,4,14,15,07,143,,24,04,072,*7E
$GPRMC,104528.500,A,3746.9667,S,14516.5481,E,1.73,158.16,250409,,,A*7F
$GPGSV,4,1,14,22,73,244,17,18,60,142,16,06,55,267,21,21,42,081,20*7E
$GPGSV,4,2,14,03,42,247,,14,35,358,24,47,34,046,,26,24,137,*74
$GPGSV,4,3,14,19,22,224,18,09,12,096,18,16,08,304,21,27,08,125,*72
$GPGSV,4,4,14,15,07,143,,24,04,072,*7E
$GPRMC,104529.000,A,3746.9668,S,14516.5482,E,1.73,158.16,250409,,,A*77
$GPGSV,4,1,14,22,73,244,17,18,60,142,16,06,55,267,21,21,42,081,20*7E
$GPGSV,4,2,14,03,42,247,,14,35,358,24,47,34,046,,26,24,137,*74
$GPGSV,4,3,14,19,22,224,18,09,12,096,18,16,08,304,22,27,08,125,*71
$GPGSV,4,4,14,15,07,143,,24,04,072,*7E
$GPRMC,104529.500,A,3746.9668,S,14516.5482,E,1.73,158.16,250409,,,A*72
$GPGSV,4,1,14,22,73,244,18,18,60,142,16,06,55,267,21,21,42,081,20*71
$GPGSV,4,2,14,03,42,247,,14,35,358,24,26,24,137,,19,22,224,17*78
$GPGSV,4,3,14,09,12,096,18,16,08,304,22,27,08,125,,15,07,143,*71
$GPGSV,4,4,14,35,05,079,,24,04,072,*76
$GPRMC,104530.000,A,3746.9669,S,14516.5483,E,1.73,158.16,250409,,,A*7F
$GPGSV,4,1,14,22,73,244,18,18,60,142,16,06,55,267,21,21,42,081,20*71
$GPGSV,4,2,14,03,42,247,,14,35,358,24,26,24,137,,19,22,224,17*78
$GPGSV,4,3,14,09,12,096,18,16,08,304,22,27,08,125,,15,07,143,*71
$GPGSV,4,4,14,35,05,079,,24,04,072,*76
$GPRMC,104530.500,A,3746.9670,S,14516.5482,E,1.74,158.16,250409,,,A*74
$GPGSV,4,1,14,22,73,244,18,18,60,142,16,06,55,267,21,21,42,081,19*7B
$GPGSV,4,2,14,03,42,247,,14,35,358,24,26,24,137,,19,22,224,17*78
$GPGSV,4,3,14,09,12,096,18,16,08,304,22,27,08,125,,15,07,143,*71
$GPGSV,4,4,14,35,05,079,,24,04,072,*76
$GPRMC,104531.000,A,3746.9671,S,14516.5483,E,1.74,158.16,250409,,,A*70
$GPGSV,4,1,14,22,73,244,18,18,60,142,15,06,55,267,21,50,46,359,*74
$GPGSV,4,2,14,21,42,081,18,03,42,247,,14,35,358,24,26,24,137,*77
$GPGSV,4,3,14,19,22,224,17,09,12,096,18,16,08,304,22,27,08,125,*7E
$GPGSV,4,4,14,15,07,143,,24,04,072,*7E
$GPRMC,104531.500,A,3746.9672,S,14516.5484,E,1.74,158.16,250409,,,A*71
$GPGSV,4,1,14,22,73,244,18,18,60,142,15,06,55,267,22,50,46,359,*77
$GPGSV,4,2,14,21,42,081,18,03,42,247,,14,35,358,23,26,24,137,*70
$GPGSV,4,3,14,19,22,224,17,09,12,096,18,16,08,304,22,27,08,125,*7E
$GPGSV,4,4,14,15,07,143,,24,04,072,*7E
$GPRMC,104532.000,A,3746.9673,S,14516.5485,E,1.74,158.16,250409,,,A*77
$GPGSV,4,1,14,22,73,244,18,18,60,142,15,06,55,267,22,50,46,359,*77
$GPGSV,4,2,14,21,42,081,18,03,42,247,,14,35,358,24,26,24,137,*77
$GPGSV,4,3,14,19,22,224,17,09,12,096,18,16,08,304,22,27,08,125,*7E
$GPGSV,4,4,14,15,07,143,,24,04,072,*7E
$GPRMC,104532.500,A,3746.9675,S,14516.5487,E,1.74,158.16,250409,,,A*76
$GPGSV,4,1,14,22,73,244,18,18,60,142,15,06,55,267,22,50,46,359,*77
$GPGSV,4,2,14,21,42,081,18,03,42,247,,14,35,358,24,26,24,137,*77
$GPGSV,4,3,14,19,22,224,17,09,12,096,18,16,08,304,23,27,08,125,*7F
$GPGSV,4,4,14,15,07,143,,24,04,072,*7E
$GPRMC,104533.000,A,3746.9677,S,14516.5489,E,1.74,158.16,250409,,,A*7E
$GPGSV,4,1,14,22,73,244,18,18,60,142,15,06,55,267,22,42,45,351,*7F
$GPGSV,4,2,14,21,42,081,19,03,42,247,,14,35,358,24,26,24,137,*76
$GPGSV,4,3,14,19,22,224,17,09,12,096,18,16,08,304,23,27,08,125,*7F
$GPGSV,4,4,14,15,07,143,,24,04,072,*7E
$GPRMC,104533.500,A,3746.9678,S,14516.5488,E,1.74,158.16,250409,,,A*75
$GPGSV,4,1,14,22,73,244,18,18,60,142,15,06,55,267,23,42,45,351,*7E
$GPGSV,4,2,14,21,42,081,19,03,42,247,,14,35,358,24,26,24,137,*76
$GPGSV,4,3,14,19,22,224,17,09,12,096,18,16,08,304,23,27,08,125,*7F
$GPGSV,4,4,14,15,07,143,,24,04,072,*7E
$GPRMC,104534.000,A,3746.9680,S,14516.5490,E,1.74,158.16,250409,,,A*79
$GPGSV,4,1,14,22,73,244,18,18,60,142,15,06,55,267,23,42,45,351,*7E
$GPGSV,4,2,14,21,42,081,19,03,42,247,,14,35,358,24,26,24,137,*76
$GPGSV,4,3,14,19,22,224,17,09,12,096,18,16,08,304,22,27,08,125,*7E
$GPGSV,4,4,14,15,07,143,,24,04,072,*7E
$GPRMC,104534.500,A,3746.9681,S,14516.5492,E,1.74,158.16,250409,,,A*7F
$GPGSV,4,1,14,22,73,244,17,18,60,142,15,06,55,267,23,42,45,351,*71
$GPGSV,4,2,14,21,42,081,19,03,42,247,,14,35,358,24,26,24,137,*76
$GPGSV,4,3,14,19,22,224,18,09,12,096,18,16,08,304,22,27,08,125,*71
$GPGSV,4,4,14,15,07,143,,24,04,072,*7E
$GPRMC,104535.000,A,3746.9682,S,14516.5493,E,1.74,158.16,250409,,,A*79
$GPGSV,4,1,14,22,73,244,16,18,60,142,15,06,55,267,22,21,42,081,19*75
$GPGSV,4,2,14,03,42,247,,14,35,358,24,47,34,046,,26,24,137,*74
$GPGSV,4,3,14,19,22,224,18,09,12,097,18,16,08,304,22,27,08,125,*70
$GPGSV,4,4,14,15,07,143,,24,04,072,*7E
$GPRMC,104535.500,A,3746.9681,S,14516.5495,E,1.74,158.16,250409,,,A*79
$GPGSV,4,1,14,22,73,244,16,18,60,142,15,06,55,267,22,21,42,081,19*75
$GPGSV,4,2,14,03,42,247,,14,35,358,24,47,34,046,,26,24,137,*74
$GPGSV,4,3,14,19,22,224,18,09,12,097,18,16,08,304,22,27,08,125,*70
$GPGSV,4,4,14,15,07,143,,24,04,072,*7E
$GPRMC,104536.000,A,3746.9681,S,14516.5496,E,1.74,158.16,250409,,,A*7C
$GPGSV,4,1,14,22,73,244,16,18,60,142,15,06,55,267,22,21,42,081,19*75
$GPGSV,4,2,14,03,42,247,,14,35,358,24,47,34,046,,26,24,137,*74
$GPGSV,4,3,14,19,22,224,18,09,12,097,18,16,08,304,21,27,08,125,*73
$GPGSV,4,4,14,15,07,143,,24,04,072,*7E
$GPRMC,104536.500,A,3746.9682,S,14516.5498,E,1.74,158.16,250409,,,A*74
$GPGSV,4,1,14,22,73,244,16,18,60,142,15,06,55,267,23,21,42,081,19*74
$GPGSV,4,2,14,03,42,247,,14,35,358,25,47,34,046,,26,24,137,*75
$GPGSV,4,3,14,19,22,224,18,09,12,097,18,16,08,304,21,27,08,125,*73
$GPGSV,4,4,14,15,07,143,,24,04,072,*7E
$GPRMC,104537.000,A,3746.9683,S,14516.5500,E,1.74,158.16,250409,,,A*71
$GPGSV,4,1,14,22,73,244,16,18,60,142,15,06,55,267,24,21,42,081,19*73
$GPGSV,4,2,14,03,42,247,,14,35,358,25,47,34,046,,26,24,137,*75
$GPGSV,4,3,14,19,22,224,17,09,12,097,18,16,08,304,21,27,08,125,*7C
$GPGSV,4,4,14,15,07,143,,24,04,072,*7E
$GPRMC,104537.500,A,3746.9682,S,14516.5502,E,1.74,158.16,250409,,,A*77
$GPGSV,4,1,14,22,73,244,16,18,60,142,16,06,55,267,24,21,42,081,18*71
$GPGSV,4,2,14,03,42,247,,14,36,358,25,26,24,137,,19,22,224,17*7A
$GPGSV,4,3,14,09,12,097,18,16,08,304,21,27,08,125,,15,07,143,*73
$GPGSV,4,4,14,35,05,079,,24,04,072,*76
$GPRMC,104538.000,A,3746.9681,S,14516.5505,E,1.74,158.16,250409,,,A*79
$GPGSV,4,1,14,22,73,244,16,18,60,142,16,06,55,267,24,21,42,081,17*7E
$GPGSV,4,2,14,03,42,247,,14,36,358,24,26,24,137,,19,22,224,17*7B
$GPGSV,4,3,14,09,12,097,18,16,08,304,21,27,08,125,,15,07,143,*73
$GPGSV,4,4,14,35,05,079,,24,04,072,*76
$GPRMC,104538.500,A,3746.9682,S,14516.5507,E,1.74,158.16,250409,,,A*7D
$GPGSV,4,1,14,22,73,244,16,18,60,142,16,06,55,267,24,21,42,081,17*7E
$GPGSV,4,2,14,03,42,247,,14,36,358,24,26,24,137,,19,22,224,17*7B
$GPGSV,4,3,14,09,12,097,18,16,08,304,21,27,08,125,,15,07,143,*73
$GPGSV,4,4,14,35,05,079,,24,04,072,*76
$GPRMC,104539.000,A,3746.9684,S,14516.5507,E,1.74,158.16,250409,,,A*7F
$GPGSV,4,1,14,22,73,244,16,18,60,142,16,06,55,267,24,21,42,081,17*7E
$GPGSV,4,2,14,03,42,247,,14,36,358,24,26,24,137,,19,22,224,17*7B
$GPGSV,4,3,14,09,12,097,18,16,08,304,22,27,08,125,,15,07,143,*70
$GPGSV,4,4,14,35,05,079,,24,04,072,*76
$GPRMC,104539.500,A,3746.9687,S,14516.5508,E,1.74,158.16,250409,,,A*76
$GPGSV,4,1,14,22,73,244,16,18,60,142,16,06,55,267,24,21,42,081,17*7E
$GPGSV,4,2,14,03,42,247,,14,36,358,24,26,24,137,,19,22,224,19*75
$GPGSV,4,3,14,09,12,097,18,16,08,304,21,27,08,125,,15,07,143,*73
$GPGSV,4,4,14,24,04,072,,34,,,*4C
$GPRMC,104540.000,A,3746.9689,S,14516.5510,E,1.74,158.16,250409,,,A*7A
$GPGSV,4,1,14,22,73,244,16,18,60,142,16,06,55,267,24,21,42,081,17*7E
$GPGSV,4,2,14,03,42,247,,14,36,358,23,26,24,137,,19,22,224,19*72
$GPGSV,4,3,14,09,12,097,18,16,08,304,20,27,08,125,,15,07,143,*72
$GPGSV,4,4,14,24,04,072,,34,,,*4C
$GPRMC,104540.500,A,3746.9690,S,14516.5510,E,1.74,158.16,250409,,,A*77
$GPGSV,4,1,14,22,73,244,16,18,60,142,16,06,55,267,23,21,42,081,17*79
$GPGSV,4,2,14,03,42,247,,14,36,358,23,26,24,137,,19,22,224,19*72
$GPGSV,4,3,14,09,12,097,17,16,08,304,20,27,08,125,,15,07,143,*7D
$GPGSV,4,4,14,24,04,072,,36,,,*4E
$GPRMC,104541.000,A,3746.9692,S,14516.5511,E,1.74,158.16,250409,,,A*70
$GPGSV,4,1,14,22,73,244,16,18,60,142,17,06,55,267,23,03,42,247,*76
$GPGSV,4,2,14,21,41,081,17,14,36,358,23,26,24,137,,19,22,224,19*7F
$GPGSV,4,3,14,09,12,097,17,16,08,304,21,27,08,125,,15,07,143,*7C
$GPGSV,4,4,14,24,04,072,,36,,,*4E
$GPRMC,104541.500,A,3746.9694,S,14516.5513,E,1.74,158.16,250409,,,A*71
$GPGSV,4,1,14,22,73,243,16,18,60,142,18,06,55,267,22,03,42,247,*7F
$GPGSV,4,2,14,21,41,081,17,14,36,358,23,26,24,137,,19,22,224,19*7F
$GPGSV,4,3,14,09,12,097,17,16,08,304,21,27,08,125,,15,07,143,*7C
$GPGSV,4,4,14,24,04,072,,38,,,*40
$GPRMC,104542.000,A,3746.9696,S,14516.5514,E,1.74,158.16,250409,,,A*72
$GPGSV,4,1,14,22,73,243,16,18,60,142,18,06,55,267,22,03,42,247,*7F
$GPGSV,4,2,14,21,41,081,17,14,36,358,22,26,24,137,,19,22,224,19*7E
$GPGSV,4,3,14,09,12,097,17,16,08,304,20,27,08,125,,15,07,143,*7D
$GPGSV,4,4,14,24,04,072,,38,,,*40
$GPRMC,104542.500,A,3746.9698,S,14516.5517,E,1.74,158.16,250409,,,A*7A
$GPGSV,4,1,14,22,73,243,17,18,60,142,17,06,55,267,22,03,42,247,*71
$GPGSV,4,2,14,21,41,081,18,14,36,358,22,26,24,137,,19,22,224,19*71
$GPGSV,4,3,14,09,12,097,17,16,08,304,20,27,08,125,,15,07,143,*7D
$GPGSV,4,4,14,24,04,072,,40,,,*4F
$GPRMC,104543.000,A,3746.9698,S,14516.5516,E,1.74,158.16,250409,,,A*7F
$GPGSV,4,1,14,22,73,243,18,18,60,142,17,06,55,267,22,03,42,247,*7E
$GPGSV,4,2,14,21,41,081,19,14,36,358,22,26,24,137,,19,22,224,19*70
$GPGSV,4,3,14,09,12,097,17,16,08,304,20,27,08,125,,15,07,143,*7D
$GPGSV,4,4,14,24,04,072,,40,,,*4F
$GPRMC,104543.500,A,3746.9698,S,14516.5514,E,1.74,158.16,250409,,,A*78
$GPGSV,4,1,14,22,73,243,18,18,60,142,18,06,55,267,22,03,42,247,*71
$GPGSV,4,2,14,21,41,081,19,14,36,358,22,26,23,137,,19,22,224,19*77
$GPGSV,4,3,14,09,12,097,17,16,08,304,19,27,08,125,,15,07,143,*77
$GPGSV,4,4,14,24,04,072,,40,,,*4F
$GPRMC,104544.000,A,3746.9698,S,14516.5513,E,1.73,158.16,250409,,,A*7A
$GPGSV,4,1,14,22,73,243,18,18,60,142,18,06,55,267,23,03,42,247,*70
$GPGSV,4,2,14,21,41,081,18,14,36,358,22,26,23,137,,19,22,224,19*76
$GPGSV,4,3,14,09,12,097,17,16,08,304,19,27,08,125,,15,07,143,*77
$GPGSV,4,4,14,24,04,072,,41,,,*4E
$GPRMC,104544.500,A,3746.9699,S,14516.5512,E,1.73,158.16,250409,,,A*7F
$GPGSV,4,1,14,22,73,243,18,18,60,142,18,06,55,267,23,03,42,247,*70
$GPGSV,4,2,14,21,41,081,18,14,36,358,23,26,23,137,,19,22,224,19*77
$GPGSV,4,3,14,09,12,097,17,16,08,304,19,27,08,125,,15,07,143,*77
$GPGSV,4,4,14,24,04,072,,41,,,*4E
$GPRMC,104545.000,A,3746.9699,S,14516.5512,E,1.73,158.16,250409,,,A*7B
$GPGSV,4,1,13,22,73,243,19,18,60,142,18,06,55,267,23,03,42,247,*76
$GPGSV,4,2,13,21,41,081,18,14,36,358,23,26,23,137,,19,22,224,19*70
$GPGSV,4,3,13,09,12,097,17,16,08,304,18,27,08,125,,15,07,143,*71
$GPGSV,4,4,13,24,04,072,*4C
$GPRMC,104545.500,A,3746.9700,S,14516.5511,E,1.73,158.16,250409,,,A*7C
$GPGSV,4,1,14,22,73,243,20,18,60,142,18,06,55,267,23,03,42,247,*7B
$GPGSV,4,2,14,21,41,081,18,14,36,358,24,26,23,137,,19,22,224,18*71
$GPGSV,4,3,14,09,12,097,17,16,08,304,18,27,08,125,,15,07,143,*76
$GPGSV,4,4,14,24,04,072,,43,,,*4C
$GPRMC,104546.000,A,3746.9700,S,14516.5511,E,1.73,158.16,250409,,,A*7A
$GPGSV,4,1,14,22,73,243,20,18,60,142,18,06,55,267,23,03,42,247,*7B
$GPGSV,4,2,14,21,41,081,18,14,36,358,24,26,23,137,,19,22,224,17*7E
$GPGSV,4,3,14,09,12,097,17,16,08,304,18,27,08,125,,15,07,143,*76
$GPGSV,4,4,14,24,04,072,,43,,,*4C
$GPRMC,104546.500,A,3746.9700,S,14516.5510,E,1.73,158.16,250409,,,A*7E
$GPGSV,4,1,14,22,73,243,20,18,60,142,18,06,55,267,24,03,42,247,*7C
$GPGSV,4,2,14,21,41,081,18,14,36,358,24,26,23,137,,19,22,224,16*7F
$GPGSV,4,3,14,09,12,097,17,16,08,304,18,27,08,125,,15,07,143,*76
$GPGSV,4,4,14,24,04,072,,45,,,*4A
$GPRMC,104547.000,A,3746.9700,S,14516.5510,E,1.73,158.16,250409,,,A*7A
$GPGSV,4,1,14,22,73,243,20,18,60,142,18,06,55,267,23,03,42,247,*7B
$GPGSV,4,2,14,21,41,081,18,14,36,358,24,26,23,137,,19,22,224,15*7C
$GPGSV,4,3,14,09,12,097,18,16,08,304,18,27,08,125,,15,07,143,*79
$GPGSV,4,4,14,24,04,072,,45,,,*4A
$GPRMC,104547.500,A,3746.9700,S,14516.5510,E,1.73,158.16,250409,,,A*7F
$GPGSV,4,1,14,22,73,243,20,18,60,142,18,06,55,267,22,03,42,247,*7A
$GPGSV,4,2,14,21,41,081,18,14,36,358,23,26,23,137,,19,22,224,15*7B
$GPGSV,4,3,14,09,12,097,18,16,08,304,19,27,08,125,,15,07,143,*78
$GPGSV,4,4,14,24,04,072,,45,,,*4A
$GPRMC,104548.000,A,3746.9701,S,14516.5511,E,1.73,158.16,250409,,,A*75
$GPGSV,4,1,14,22,73,243,19,18,60,142,18,06,55,267,22,03,42,247,*70
$GPGSV,4,2,14,21,41,081,18,14,36,358,23,26,23,137,,19,22,224,15*7B
$GPGSV,4,3,14,09,12,097,18,16,08,304,19,27,08,125,,15,07,143,*78
$GPGSV,4,4,14,24,04,072,,46,,,*49
$GPRMC,104548.500,A,3746.9701,S,14516.5511,E,1.73,158.16,250409,,,A*70
$GPGSV,4,1,14,22,73,243,18,18,60,142,18,06,55,267,23,03,42,247,*70
$GPGSV,4,2,14,21,41,081,18,14,36,358,23,26,23,137,,19,22,224,15*7B
$GPGSV,4,3,14,09,12,097,18,16,08,304,19,27,08,125,,15,07,143,*78
$GPGSV,4,4,14,24,04,072,,46,,,*49
$GPRMC,104549.000,A,3746.9702,S,14516.5512,E,1.73,158.16,250409,,,A*74
$GPGSV,4,1,14,22,73,243,18,18,60,142,18,06,55,267,23,03,42,247,*70
$GPGSV,4,2,14,21,41,081,17,14,36,358,22,26,23,137,,19,22,224,16*76
$GPGSV,4,3,14,09,12,097,18,16,08,304,19,27,08,125,,15,07,143,*78
$GPGSV,4,4,14,24,04,072,,49,,,*46
$GPRMC,104549.500,A,3746.9702,S,14516.5512,E,1.73,158.16,250409,,,A*71
$GPGSV,4,1,14,22,73,243,18,18,60,142,18,06,55,267,24,03,42,247,*77
$GPGSV,4,2,14,21,41,081,16,14,36,358,22,26,23,137,,19,22,224,17*76
$GPGSV,4,3,14,09,12,097,18,16,08,304,19,27,08,125,,15,07,143,*78
$GPGSV,4,4,14,24,04,072,,49,,,*46
$GPRMC,104550.000,A,3746.9703,S,14516.5513,E,1.73,158.16,250409,,,A*7C
$GPGSV,4,1,14,22,73,243,18,18,60,142,19,06,55,267,24,50,46,359,*7A
$GPGSV,4,2,14,03,42,247,,21,41,081,16,14,36,358,21,26,23,137,*7B
$GPGSV,4,3,14,19,22,224,17,09,12,097,18,16,08,304,20,27,08,125,*7D
$GPGSV,4,4,14,15,07,143,,24,04,072,*7E
$GPRMC,104550.500,A,3746.9703,S,14516.5513,E,1.73,158.16,250409,,,A*79
$GPGSV,4,1,14,22,73,243,18,18,60,142,20,06,55,267,24,50,46,359,*70
$GPGSV,4,2,14,03,42,247,18,21,41,081,16,14,36,358,22,26,23,137,*71
$GPGSV,4,3,14,19,22,224,16,09,12,097,18,16,08,304,20,27,08,125,*7C
$GPGSV,4,4,14,15,07,143,,24,04,072,*7E
$GPRMC,104551.000,A,3746.9703,S,14516.5513,E,1.73,158.16,250409,,,A*7D
$GPGSV,4,1,14,22,73,243,19,18,60,142,19,06,55,267,23,50,46,359,*7C
$GPGSV,4,2,14,03,42,247,18,21,41,081,16,14,36,358,23,26,23,137,*70
$GPGSV,4,3,14,19,22,224,16,09,12,097,18,16,08,304,20,27,08,125,*7C
$GPGSV,4,4,14,15,07,143,,24,04,072,*7E
$GPRMC,104551.500,A,3746.9703,S,14516.5514,E,1.73,158.16,250409,,,A*7F
$GPGSV,4,1,14,22,73,243,20,18,60,142,18,06,55,267,22,50,46,359,*76
$GPGSV,4,2,14,03,42,247,16,21,41,081,18,14,36,358,24,26,23,137,*77
$GPGSV,4,3,14,19,22,224,16,09,12,097,18,16,08,304,20,27,08,125,*7C
$GPGSV,4,4,14,15,07,143,,24,04,072,*7E
$GPRMC,104552.000,A,3746.9703,S,14516.5514,E,1.73,158.16,250409,,,A*79
$GPGSV,4,1,14,22,73,243,20,18,60,142,18,06,55,267,23,50,46,359,*77
$GPGSV,4,2,14,03,42,247,16,21,41,081,19,14,36,358,24,26,23,137,*76
$GPGSV,4,3,14,19,22,224,17,09,12,097,18,16,08,304,20,27,08,125,*7D
$GPGSV,4,4,14,15,07,143,,24,04,072,*7E
$GPRMC,104552.500,A,3746.9704,S,14516.5514,E,1.73,158.16,250409,,,A*7B
$GPGSV,4,1,14,22,73,243,19,18,60,142,18,06,55,267,24,42,45,351,*72
$GPGSV,4,2,14,03,42,247,16,21,41,081,19,14,36,358,24,26,23,137,*76
$GPGSV,4,3,14,19,22,224,18,09,12,097,18,16,08,304,20,27,08,125,*72
$GPGSV,4,4,14,15,07,143,,24,04,072,*7E
$GPRMC,104553.000,A,3746.9703,S,14516.5514,E,1.73,158.16,250409,,,A*78
$GPGSV,4,1,14,22,73,243,18,18,60,142,18,06,55,267,24,42,45,351,*73
$GPGSV,4,2,14,03,42,247,15,21,41,081,19,14,36,358,24,26,23,137,*75
$GPGSV,4,3,14,19,22,224,18,09,12,097,18,16,08,304,19,27,08,125,*78
$GPGSV,4,4,14,15,07,143,,24,04,072,*7E
$GPRMC,104553.500,A,3746.9703,S,14516.5514,E,1.73,158.16,250409,,,A*7D
$GPGSV,4,1,14,22,73,243,18,18,60,142,18,06,55,267,24,42,45,351,*73
$GPGSV,4,2,14,03,42,247,15,21,41,081,18,14,36,358,24,26,23,137,*74
$GPGSV,4,3,14,19,22,224,18,09,12,097,17,16,08,304,19,27,08,125,*77
$GPGSV,4,4,14,15,07,143,,24,04,072,*7E
$GPRMC,104554.000,A,3746.9703,S,14516.5514,E,1.73,158.16,250409,,,A*7F
$GPGSV,4,1,14,22,73,243,18,18,60,142,18,06,55,267,23,42,45,351,*74
$GPGSV,4,2,14,03,42,247,15,21,41,081,18,14,36,358,24,26,23,137,*74
$GPGSV,4,3,14,19,22,224,18,09,12,097,17,16,08,304,18,27,08,125,*76
$GPGSV,4,4,14,15,07,143,,24,04,072,*7E
$GPRMC,104554.500,A,3746.9703,S,14516.5514,E,1.73,158.16,250409,,,A*7A
$GPGSV,4,1,14,22,73,243,18,18,60,142,17,06,55,267,23,42,45,351,*7B
$GPGSV,4,2,14,03,42,247,15,21,41,081,18,14,36,358,24,26,23,137,*74
$GPGSV,4,3,14,19,22,224,18,09,12,097,17,16,08,304,18,27,08,125,*76
$GPGSV,4,4,14,15,07,143,,24,04,072,*7E
$GPRMC,104555.000,A,3746.9702,S,14516.5515,E,1.73,158.16,250409,,,A*7E
$GPGSV,4,1,14,22,73,243,18,18,60,142,16,06,55,267,23,03,42,247,15*7A
$GPGSV,4,2,14,21,41,081,18,14,36,358,24,47,34,046,,26,23,137,*72
$GPGSV,4,3,14,19,22,224,18,09,12,097,17,16,08,304,19,27,08,125,*77
$GPGSV,4,4,14,15,07,143,,24,04,072,*7E
$GPRMC,104555.500,A,3746.9702,S,14516.5515,E,1.73,158.16,250409,,,A*7B
$GPGSV,4,1,14,22,73,243,18,18,60,142,16,06,55,267,22,03,42,247,15*7B
$GPGSV,4,2,14,21,41,081,18,14,36,358,25,47,34,046,,26,23,137,*73
$GPGSV,4,3,14,19,22,224,18,09,12,097,17,16,08,304,20,27,08,125,*7D
$GPGSV,4,4,14,15,07,143,,24,04,072,*7E
$GPRMC,104556.000,A,3746.9702,S,14516.5515,E,1.73,158.16,250409,,,A*7D
$GPGSV,4,1,14,22,73,243,18,18,60,142,18,06,55,267,21,03,42,247,15*76
$GPGSV,4,2,14,21,41,081,18,14,36,358,25,47,34,046,,26,23,137,*73
$GPGSV,4,3,14,19,22,224,18,09,12,097,16,16,08,304,21,27,08,125,*7D
$GPGSV,4,4,14,15,07,143,,24,04,072,*7E
$GPRMC,104556.500,A,3746.9701,S,14516.5515,E,1.73,158.16,250409,,,A*7B
$GPGSV,4,1,14,22,73,243,18,18,60,142,18,06,55,267,21,03,42,247,15*76
$GPGSV,4,2,14,21,41,081,18,14,36,358,24,47,34,046,,26,23,137,*72
$GPGSV,4,3,14,19,22,224,18,09,12,097,15,16,08,304,22,27,08,125,*7D
$GPGSV,4,4,14,15,07,143,,24,04,072,*7E
$GPRMC,104557.000,A,3746.9701,S,14516.5515,E,0.08,158.16,250409,,,A*72
$GPGSV,4,1,14,22,73,243,18,18,60,142,18,06,55,267,21,03,42,247,15*76
$GPGSV,4,2,14,21,41,081,18,14,36,358,24,47,34,046,,26,23,137,*72
$GPGSV,4,3,14,19,22,224,17,09,12,097,16,16,08,304,22,27,08,125,*71
$GPGSV,4,4,14,15,07,143,,24,04,072,*7E
$GPRMC,104557.500,A,3746.9701,S,14516.5515,E,0.06,158.16,250409,,,A*79
$GPGSV,4,1,14,22,73,243,18,18,60,142,18,06,55,267,22,03,42,247,15*75
